{
"type": "FeatureCollection",
"name": "BS",
"crs": { "type": "name", "properties": { "name": "urn:ogc:def:crs:OGC:1.3:CRS84" } },
"features": [
{ "type": "Feature", "properties": { "OBJECTID": 1, "NUMMER": 5, "NAME": "Grabensee - Strandbad Perwang", "TYP": 1, "TYP_BEZ": "Strandbad", "EU_BADEST": 1 }, "geometry": { "type": "Point", "coordinates": [ 13.0957947, 47.9961564 ] } },
{ "type": "Feature", "properties": { "OBJECTID": 2, "NUMMER": 7, "NAME": "Mattsee - Strandbad Gerbertsham", "TYP": 1, "TYP_BEZ": "Strandbad", "EU_BADEST": 1 }, "geometry": { "type": "Point", "coordinates": [ 13.1505199, 47.9927034 ] } },
{ "type": "Feature", "properties": { "OBJECTID": 3, "NUMMER": 6, "NAME": "Mattsee - Strandbad Mattsee", "TYP": 1, "TYP_BEZ": "Strandbad", "EU_BADEST": 1 }, "geometry": { "type": "Point", "coordinates": [ 13.1076552, 47.9741238 ] } },
{ "type": "Feature", "properties": { "OBJECTID": 4, "NUMMER": 13, "NAME": "Wallersee - Strandbad Neumarkt", "TYP": 1, "TYP_BEZ": "Strandbad", "EU_BADEST": 1 }, "geometry": { "type": "Point", "coordinates": [ 13.2084296, 47.9261282 ] } },
{ "type": "Feature", "properties": { "OBJECTID": 5, "NUMMER": 12, "NAME": "Wallersee - Strandbad Wallersee \/ Zell", "TYP": 2, "TYP_BEZ": "Badestelle am See", "EU_BADEST": 1 }, "geometry": { "type": "Point", "coordinates": [ 13.164747, 47.9172547 ] } },
{ "type": "Feature", "properties": { "OBJECTID": 6, "NUMMER": 10, "NAME": "Wallersee - Strandbad Henndorf", "TYP": 1, "TYP_BEZ": "Strandbad", "EU_BADEST": 1 }, "geometry": { "type": "Point", "coordinates": [ 13.1777724, 47.9089346 ] } },
{ "type": "Feature", "properties": { "OBJECTID": 7, "NUMMER": 11, "NAME": "Wallersee - Strandbad Seekirchen", "TYP": 1, "TYP_BEZ": "Strandbad", "EU_BADEST": 1 }, "geometry": { "type": "Point", "coordinates": [ 13.1428469, 47.9040568 ] } },
{ "type": "Feature", "properties": { "OBJECTID": 8, "NUMMER": 3, "NAME": "Fuschlsee - Strandbad Hof", "TYP": 1, "TYP_BEZ": "Strandbad", "EU_BADEST": 1 }, "geometry": { "type": "Point", "coordinates": [ 13.2517992, 47.8117354 ] } },
{ "type": "Feature", "properties": { "OBJECTID": 9, "NUMMER": 4, "NAME": "Fuschlsee - Strandbad Fuschl", "TYP": 1, "TYP_BEZ": "Strandbad", "EU_BADEST": 1 }, "geometry": { "type": "Point", "coordinates": [ 13.2984249, 47.7946629 ] } },
{ "type": "Feature", "properties": { "OBJECTID": 10, "NUMMER": 19, "NAME": "Hintersee - Badestelle Hirschpoint", "TYP": 2, "TYP_BEZ": "Badestelle am See", "EU_BADEST": 1 }, "geometry": { "type": "Point", "coordinates": [ 13.2519308, 47.7491335 ] } },
{ "type": "Feature", "properties": { "OBJECTID": 11, "NUMMER": 18, "NAME": "Bürmooser See", "TYP": 2, "TYP_BEZ": "Badestelle am See", "EU_BADEST": 1 }, "geometry": { "type": "Point", "coordinates": [ 12.9242404, 47.9851738 ] } },
{ "type": "Feature", "properties": { "OBJECTID": 12, "NUMMER": 8, "NAME": "Obertrumer See - Strandbad Seeham", "TYP": 1, "TYP_BEZ": "Strandbad", "EU_BADEST": 1 }, "geometry": { "type": "Point", "coordinates": [ 13.0812729, 47.9688492 ] } },
{ "type": "Feature", "properties": { "OBJECTID": 13, "NUMMER": 9, "NAME": "Obertrumer See - Strandbad Staffl \/ Oitner", "TYP": 1, "TYP_BEZ": "Strandbad", "EU_BADEST": 1 }, "geometry": { "type": "Point", "coordinates": [ 13.0714436, 47.9420381 ] } },
{ "type": "Feature", "properties": { "OBJECTID": 14, "NUMMER": 2, "NAME": "Seewaldsee", "TYP": 2, "TYP_BEZ": "Badestelle am See", "EU_BADEST": 1 }, "geometry": { "type": "Point", "coordinates": [ 13.2752222, 47.6274365 ] } },
{ "type": "Feature", "properties": { "OBJECTID": 15, "NUMMER": 1, "NAME": "Bürgerausee Kuchl", "TYP": 2, "TYP_BEZ": "Badestelle am See", "EU_BADEST": 1 }, "geometry": { "type": "Point", "coordinates": [ 13.1409331, 47.6227074 ] } },
{ "type": "Feature", "properties": { "OBJECTID": 16, "NUMMER": 33, "NAME": "Ritzensee", "TYP": 1, "TYP_BEZ": "Strandbad", "EU_BADEST": 1 }, "geometry": { "type": "Point", "coordinates": [ 12.8468917, 47.4187905 ] } },
{ "type": "Feature", "properties": { "OBJECTID": 17, "NUMMER": 24, "NAME": "Böndlsee", "TYP": 1, "TYP_BEZ": "Strandbad", "EU_BADEST": 1 }, "geometry": { "type": "Point", "coordinates": [ 13.042978, 47.314066 ] } },
{ "type": "Feature", "properties": { "OBJECTID": 18, "NUMMER": 22, "NAME": "Goldegger See", "TYP": 1, "TYP_BEZ": "Strandbad", "EU_BADEST": 1 }, "geometry": { "type": "Point", "coordinates": [ 13.1035422, 47.3172398 ] } },
{ "type": "Feature", "properties": { "OBJECTID": 19, "NUMMER": 36, "NAME": "Badesee Hollersbach", "TYP": 1, "TYP_BEZ": "Strandbad", "EU_BADEST": 1 }, "geometry": { "type": "Point", "coordinates": [ 12.412858, 47.2763519 ] } },
{ "type": "Feature", "properties": { "OBJECTID": 20, "NUMMER": 35, "NAME": "Badesee Uttendorf", "TYP": 1, "TYP_BEZ": "Strandbad", "EU_BADEST": 1 }, "geometry": { "type": "Point", "coordinates": [ 12.577722, 47.2835009 ] } },
{ "type": "Feature", "properties": { "OBJECTID": 21, "NUMMER": 30, "NAME": "Zeller See - Strandbad Prielau", "TYP": 2, "TYP_BEZ": "Badestelle am See", "EU_BADEST": 1 }, "geometry": { "type": "Point", "coordinates": [ 12.8071925, 47.339078 ] } },
{ "type": "Feature", "properties": { "OBJECTID": 22, "NUMMER": 28, "NAME": "Zeller See - Strandbad Thumersbach", "TYP": 1, "TYP_BEZ": "Strandbad", "EU_BADEST": 1 }, "geometry": { "type": "Point", "coordinates": [ 12.8104376, 47.3300867 ] } },
{ "type": "Feature", "properties": { "OBJECTID": 23, "NUMMER": 32, "NAME": "Zeller See - Strandbad Erlberg", "TYP": 1, "TYP_BEZ": "Strandbad", "EU_BADEST": 1 }, "geometry": { "type": "Point", "coordinates": [ 12.813101, 47.3069636 ] } },
{ "type": "Feature", "properties": { "OBJECTID": 24, "NUMMER": 31, "NAME": "Zeller See - Strandbad Schüttdorf", "TYP": 1, "TYP_BEZ": "Strandbad", "EU_BADEST": 1 }, "geometry": { "type": "Point", "coordinates": [ 12.7985548, 47.3120594 ] } },
{ "type": "Feature", "properties": { "OBJECTID": 25, "NUMMER": 29, "NAME": "Zeller See - Strandbad Zell", "TYP": 1, "TYP_BEZ": "Strandbad", "EU_BADEST": 1 }, "geometry": { "type": "Point", "coordinates": [ 12.8013176, 47.3257099 ] } },
{ "type": "Feature", "properties": { "OBJECTID": 26, "NUMMER": 34, "NAME": "Badesee Niedernsill", "TYP": 1, "TYP_BEZ": "Strandbad", "EU_BADEST": 1 }, "geometry": { "type": "Point", "coordinates": [ 12.6441089, 47.2776761 ] } },
{ "type": "Feature", "properties": { "OBJECTID": 27, "NUMMER": 27, "NAME": "Prebersee", "TYP": 2, "TYP_BEZ": "Badestelle am See", "EU_BADEST": 1 }, "geometry": { "type": "Point", "coordinates": [ 13.8571405, 47.1849334 ] } },
{ "type": "Feature", "properties": { "OBJECTID": 28, "NUMMER": 14, "NAME": "Wolfgangsee - Strandbad St. Gilgen", "TYP": 1, "TYP_BEZ": "Strandbad", "EU_BADEST": 1 }, "geometry": { "type": "Point", "coordinates": [ 13.3692607, 47.7694913 ] } },
{ "type": "Feature", "properties": { "OBJECTID": 29, "NUMMER": 16, "NAME": "Wolfgangsee - Badeplatz Information Ried", "TYP": 2, "TYP_BEZ": "Badestelle am See", "EU_BADEST": 1 }, "geometry": { "type": "Point", "coordinates": [ 13.431152, 47.7427203 ] } },
{ "type": "Feature", "properties": { "OBJECTID": 30, "NUMMER": 15, "NAME": "Wolfgangsee - Felmayerbad Strobl", "TYP": 1, "TYP_BEZ": "Strandbad", "EU_BADEST": 1 }, "geometry": { "type": "Point", "coordinates": [ 13.4778495, 47.7192305 ] } },
{ "type": "Feature", "properties": { "OBJECTID": 31, "NUMMER": 25, "NAME": "Badesee Eben", "TYP": 1, "TYP_BEZ": "Strandbad", "EU_BADEST": 0 }, "geometry": { "type": "Point", "coordinates": [ 13.3968204, 47.3990989 ] } },
{ "type": "Feature", "properties": { "OBJECTID": 32, "NUMMER": 21, "NAME": "Winklersee Flachau", "TYP": 2, "TYP_BEZ": "Badestelle am See", "EU_BADEST": 1 }, "geometry": { "type": "Point", "coordinates": [ 13.3927103, 47.3168583 ] } },
{ "type": "Feature", "properties": { "OBJECTID": 33, "NUMMER": 23, "NAME": "Badesee Gastein", "TYP": 1, "TYP_BEZ": "Strandbad", "EU_BADEST": 1 }, "geometry": { "type": "Point", "coordinates": [ 13.1215939, 47.1452115 ] } },
{ "type": "Feature", "properties": { "OBJECTID": 34, "NUMMER": 37, "NAME": "Badesee Liefering", "TYP": 1, "TYP_BEZ": "Strandbad", "EU_BADEST": 1 }, "geometry": { "type": "Point", "coordinates": [ 13.0163349, 47.8382038 ] } },
{ "type": "Feature", "properties": { "OBJECTID": 35, "NUMMER": 38, "NAME": "Waldbad Anif", "TYP": 2, "TYP_BEZ": "Badestelle am See", "EU_BADEST": 1 }, "geometry": { "type": "Point", "coordinates": [ 13.0792857, 47.7348383 ] } },
{ "type": "Feature", "properties": { "OBJECTID": 36, "NUMMER": 39, "NAME": "Badesee Reitdorf Reitecksee", "TYP": 2, "TYP_BEZ": "Badestelle am See", "EU_BADEST": 1 }, "geometry": { "type": "Point", "coordinates": [ 13.3824554, 47.3728876 ] } },
{ "type": "Feature", "properties": { "OBJECTID": 37, "NUMMER": 40, "NAME": "Felsenbad \/ Faistenau - Alm", "TYP": 3, "TYP_BEZ": "Badestelle am Fluss", "EU_BADEST": 0 }, "geometry": { "type": "Point", "coordinates": [ 13.2276026, 47.762919 ] } },
{ "type": "Feature", "properties": { "OBJECTID": 38, "NUMMER": 41, "NAME": "Lammermündung", "TYP": 3, "TYP_BEZ": "Badestelle am Fluss", "EU_BADEST": 0 }, "geometry": { "type": "Point", "coordinates": [ 13.1680633, 47.5834113 ] } },
{ "type": "Feature", "properties": { "OBJECTID": 39, "NUMMER": 42, "NAME": "Mündung der Königseeache, Hallein - Rif", "TYP": 3, "TYP_BEZ": "Badestelle am Fluss", "EU_BADEST": 0 }, "geometry": { "type": "Point", "coordinates": [ 13.0801934, 47.7307441 ] } },
{ "type": "Feature", "properties": { "OBJECTID": 40, "NUMMER": 43, "NAME": "Römerbrücke \/ Bad Vigaun - Taugl", "TYP": 3, "TYP_BEZ": "Badestelle am Fluss", "EU_BADEST": 0 }, "geometry": { "type": "Point", "coordinates": [ 13.156096, 47.6618617 ] } },
{ "type": "Feature", "properties": { "OBJECTID": 41, "NUMMER": 44, "NAME": "Naturerholungsgebiet Vorderkaser - St. Martin\/Lofer", "TYP": 3, "TYP_BEZ": "Badestelle am Fluss", "EU_BADEST": 0 }, "geometry": { "type": "Point", "coordinates": [ 12.7176438, 47.5301944 ] } },
{ "type": "Feature", "properties": { "OBJECTID": 42, "NUMMER": 45, "NAME": "Auschneidersee Wals", "TYP": 2, "TYP_BEZ": "Badestelle am See", "EU_BADEST": 0 }, "geometry": { "type": "Point", "coordinates": [ 12.9564788, 47.7824318 ] } },
{ "type": "Feature", "properties": { "OBJECTID": 43, "NUMMER": 46, "NAME": "Badeteich Augut, St. Johann", "TYP": 2, "TYP_BEZ": "Badestelle am See", "EU_BADEST": 0 }, "geometry": { "type": "Point", "coordinates": [ 13.1835761, 47.3259614 ] } },
{ "type": "Feature", "properties": { "OBJECTID": 44, "NUMMER": 47, "NAME": "Badeteich Kohlmayr, Untertauern", "TYP": 2, "TYP_BEZ": "Badestelle am See", "EU_BADEST": 0 }, "geometry": { "type": "Point", "coordinates": [ 13.5044251, 47.3022356 ] } },
{ "type": "Feature", "properties": { "OBJECTID": 45, "NUMMER": 48, "NAME": "Badeteich Werfenweng", "TYP": 2, "TYP_BEZ": "Badestelle am See", "EU_BADEST": 0 }, "geometry": { "type": "Point", "coordinates": [ 13.2578911, 47.4639582 ] } },
{ "type": "Feature", "properties": { "OBJECTID": 46, "NUMMER": 49, "NAME": "Seebad-Erlebnispark St. Martin \/ Tgb.", "TYP": 2, "TYP_BEZ": "Badestelle am See", "EU_BADEST": 0 }, "geometry": { "type": "Point", "coordinates": [ 13.3800704, 47.4635745 ] } },
{ "type": "Feature", "properties": { "OBJECTID": 47, "NUMMER": 57, "NAME": "Fuschlsee - Badestrand Wesenauer", "TYP": 2, "TYP_BEZ": "Badestelle am See", "EU_BADEST": 0 }, "geometry": { "type": "Point", "coordinates": [ 13.2913711, 47.7944615 ] } },
{ "type": "Feature", "properties": { "OBJECTID": 48, "NUMMER": 58, "NAME": "Fuschlsee - FKK Badestrand", "TYP": 2, "TYP_BEZ": "Badestelle am See", "EU_BADEST": 0 }, "geometry": { "type": "Point", "coordinates": [ 13.2694785, 47.8087745 ] } },
{ "type": "Feature", "properties": { "OBJECTID": 49, "NUMMER": 55, "NAME": "Fuschlsee - Badeplatz Stöllinger", "TYP": 2, "TYP_BEZ": "Badestelle am See", "EU_BADEST": 0 }, "geometry": { "type": "Point", "coordinates": [ 13.2759288, 47.8003979 ] } },
{ "type": "Feature", "properties": { "OBJECTID": 50, "NUMMER": 56, "NAME": "Fuschlsee - Badestrand Schlick", "TYP": 2, "TYP_BEZ": "Badestelle am See", "EU_BADEST": 0 }, "geometry": { "type": "Point", "coordinates": [ 13.2985998, 47.7998726 ] } },
{ "type": "Feature", "properties": { "OBJECTID": 51, "NUMMER": 51, "NAME": "Obertrumer See, Strandbad Strasser, Obertrum", "TYP": 1, "TYP_BEZ": "Strandbad", "EU_BADEST": 0 }, "geometry": { "type": "Point", "coordinates": [ 13.0699304, 47.9425676 ] } },
{ "type": "Feature", "properties": { "OBJECTID": 52, "NUMMER": 50, "NAME": "Obertrumer See, Badeplatz Haselberger", "TYP": 2, "TYP_BEZ": "Badestelle am See", "EU_BADEST": 0 }, "geometry": { "type": "Point", "coordinates": [ 13.0950138, 47.9634323 ] } },
{ "type": "Feature", "properties": { "OBJECTID": 53, "NUMMER": 52, "NAME": "Wallersee, Seekirchner Gemeindestrand, Wallersee", "TYP": 2, "TYP_BEZ": "Badestelle am See", "EU_BADEST": 0 }, "geometry": { "type": "Point", "coordinates": [ 13.1600796, 47.91678 ] } },
{ "type": "Feature", "properties": { "OBJECTID": 54, "NUMMER": 53, "NAME": "Wallersee, Badeplatz Marieninsel", "TYP": 2, "TYP_BEZ": "Badestelle am See", "EU_BADEST": 0 }, "geometry": { "type": "Point", "coordinates": [ 13.1983874, 47.9206991 ] } },
{ "type": "Feature", "properties": { "OBJECTID": 55, "NUMMER": 54, "NAME": "Wallersee, Seebad Hotel Winkler; Neumarkt", "TYP": 1, "TYP_BEZ": "Strandbad", "EU_BADEST": 0 }, "geometry": { "type": "Point", "coordinates": [ 13.2058884, 47.9293338 ] } },
{ "type": "Feature", "properties": { "OBJECTID": 56, "NUMMER": 61, "NAME": "Zeller See - Badeplatz der Gemeinde Maishofen", "TYP": 2, "TYP_BEZ": "Badestelle am See", "EU_BADEST": 0 }, "geometry": { "type": "Point", "coordinates": [ 12.813952, 47.3371854 ] } },
{ "type": "Feature", "properties": { "OBJECTID": 57, "NUMMER": 63, "NAME": "Wolfgangsee - Bad in Gschwendt", "TYP": 1, "TYP_BEZ": "Strandbad", "EU_BADEST": 0 }, "geometry": { "type": "Point", "coordinates": [ 13.4403829, 47.7237961 ] } },
{ "type": "Feature", "properties": { "OBJECTID": 58, "NUMMER": 59, "NAME": "Zeller See - Badestrand Wieshof", "TYP": 2, "TYP_BEZ": "Badestelle am See", "EU_BADEST": 0 }, "geometry": { "type": "Point", "coordinates": [ 12.8124091, 47.3385507 ] } },
{ "type": "Feature", "properties": { "OBJECTID": 59, "NUMMER": 60, "NAME": "Zeller See - Seepromenade Friedhof", "TYP": 2, "TYP_BEZ": "Badestelle am See", "EU_BADEST": 0 }, "geometry": { "type": "Point", "coordinates": [ 12.7986562, 47.3345114 ] } },
{ "type": "Feature", "properties": { "OBJECTID": 60, "NUMMER": 62, "NAME": "Wolfgangsee - Wassbad, Strobl", "TYP": 1, "TYP_BEZ": "Strandbad", "EU_BADEST": 0 }, "geometry": { "type": "Point", "coordinates": [ 13.4557457, 47.7172507 ] } },
{ "type": "Feature", "properties": { "OBJECTID": 61, "NUMMER": 64, "NAME": "Wolfgangsee - Badeplatz Berau, St. Wolfgang", "TYP": 2, "TYP_BEZ": "Badestelle am See", "EU_BADEST": 0 }, "geometry": { "type": "Point", "coordinates": [ 13.478154, 47.729682 ] } },
{ "type": "Feature", "properties": { "OBJECTID": 62, "NUMMER": 65, "NAME": "Wolfgangsee - Badeplatz Hödlbauer, Abersee", "TYP": 2, "TYP_BEZ": "Badestelle am See", "EU_BADEST": 0 }, "geometry": { "type": "Point", "coordinates": [ 13.4298132, 47.7384137 ] } },
{ "type": "Feature", "properties": { "OBJECTID": 63, "NUMMER": 66, "NAME": "Wolfgangsee - Badestrand Intermezzo, Ried", "TYP": 1, "TYP_BEZ": "Strandbad", "EU_BADEST": 0 }, "geometry": { "type": "Point", "coordinates": [ 13.4358388, 47.7387709 ] } },
{ "type": "Feature", "properties": { "OBJECTID": 64, "NUMMER": 67, "NAME": "Wolfgangsee - Camping Wolfgangblick, Abersee", "TYP": 2, "TYP_BEZ": "Badestelle am See", "EU_BADEST": 0 }, "geometry": { "type": "Point", "coordinates": [ 13.433484, 47.7366949 ] } },
{ "type": "Feature", "properties": { "OBJECTID": 65, "NUMMER": 68, "NAME": "Wolfgangsee - Naturbadestrand Abersee", "TYP": 2, "TYP_BEZ": "Badestelle am See", "EU_BADEST": 0 }, "geometry": { "type": "Point", "coordinates": [ 13.4370488, 47.7356528 ] } },
{ "type": "Feature", "properties": { "OBJECTID": 66, "NUMMER": 69, "NAME": "Wolfgangsee - Strandbad Ried - St. Wolfgang", "TYP": 1, "TYP_BEZ": "Strandbad", "EU_BADEST": 0 }, "geometry": { "type": "Point", "coordinates": [ 13.4333287, 47.7404136 ] } },
{ "type": "Feature", "properties": { "OBJECTID": 67, "NUMMER": 70, "NAME": "Wolfgangsee - Waldbad Fürberg", "TYP": 2, "TYP_BEZ": "Badestelle am See", "EU_BADEST": 0 }, "geometry": { "type": "Point", "coordinates": [ 13.3916045, 47.7658152 ] } },
{ "type": "Feature", "properties": { "OBJECTID": 68, "NUMMER": 71, "NAME": "Wolfgangsee - Sonnplatz - Yachtclub - St. Gilgen", "TYP": 2, "TYP_BEZ": "Badestelle am See", "EU_BADEST": 0 }, "geometry": { "type": "Point", "coordinates": [ 13.371006, 47.7708544 ] } },
{ "type": "Feature", "properties": { "OBJECTID": 69, "NUMMER": 72, "NAME": "Wolfgangsee - Badeplatz Gamsjaga", "TYP": 2, "TYP_BEZ": "Badestelle am See", "EU_BADEST": 1 }, "geometry": { "type": "Point", "coordinates": [ 13.3963384, 47.7392917 ] } },
{ "type": "Feature", "properties": { "OBJECTID": 70, "NUMMER": 73, "NAME": "Wiestalsee", "TYP": 2, "TYP_BEZ": "Badestelle am See", "EU_BADEST": 0 }, "geometry": { "type": "Point", "coordinates": [ 13.1710658, 47.7467047 ] } },
{ "type": "Feature", "properties": { "OBJECTID": 71, "NUMMER": 74, "NAME": "Harrbergsee, Unterscheffau", "TYP": 1, "TYP_BEZ": "Strandbad", "EU_BADEST": 1 }, "geometry": { "type": "Point", "coordinates": [ 13.2401238, 47.5811225 ] } }
]
}
